{
  "generated_at": "2026-03-07 20:17:21.738744",
  "model_version": "v1.0-fallback",
  "predictions": [
    {
      "name": "Seoul",
      "lat": 37.5665,
      "lon": 126.978,
      "predicted_p10": 25.72,
      "predicted_p50": 36.75,
      "predicted_p90": 47.77,
      "uncertainty": 22.05,
      "model_version": "v1.0",
      "method": "fallback_linear"
    },
    {
      "name": "Beijing",
      "lat": 39.9042,
      "lon": 116.4074,
      "predicted_p10": 25.72,
      "predicted_p50": 36.75,
      "predicted_p90": 47.77,
      "uncertainty": 22.05,
      "model_version": "v1.0",
      "method": "fallback_linear"
    },
    {
      "name": "Delhi",
      "lat": 28.6139,
      "lon": 77.209,
      "predicted_p10": 25.72,
      "predicted_p50": 36.75,
      "predicted_p90": 47.77,
      "uncertainty": 22.05,
      "model_version": "v1.0",
      "method": "fallback_linear"
    },
    {
      "name": "Tokyo",
      "lat": 35.6762,
      "lon": 139.6503,
      "predicted_p10": 25.72,
      "predicted_p50": 36.75,
      "predicted_p90": 47.77,
      "uncertainty": 22.05,
      "model_version": "v1.0",
      "method": "fallback_linear"
    },
    {
      "name": "London",
      "lat": 51.5074,
      "lon": -0.1278,
      "predicted_p10": 25.72,
      "predicted_p50": 36.75,
      "predicted_p90": 47.77,
      "uncertainty": 22.05,
      "model_version": "v1.0",
      "method": "fallback_linear"
    },
    {
      "name": "New York",
      "lat": 40.7128,
      "lon": -74.006,
      "predicted_p10": 25.72,
      "predicted_p50": 36.75,
      "predicted_p90": 47.77,
      "uncertainty": 22.05,
      "model_version": "v1.0",
      "method": "fallback_linear"
    },
    {
      "name": "Cairo",
      "lat": 30.0444,
      "lon": 31.2357,
      "predicted_p10": 25.72,
      "predicted_p50": 36.75,
      "predicted_p90": 47.77,
      "uncertainty": 22.05,
      "model_version": "v1.0",
      "method": "fallback_linear"
    },
    {
      "name": "S\u00e3o Paulo",
      "lat": -23.5505,
      "lon": -46.6333,
      "predicted_p10": 25.72,
      "predicted_p50": 36.75,
      "predicted_p90": 47.77,
      "uncertainty": 22.05,
      "model_version": "v1.0",
      "method": "fallback_linear"
    },
    {
      "name": "Lagos",
      "lat": 6.5244,
      "lon": 3.3792,
      "predicted_p10": 25.72,
      "predicted_p50": 36.75,
      "predicted_p90": 47.77,
      "uncertainty": 22.05,
      "model_version": "v1.0",
      "method": "fallback_linear"
    },
    {
      "name": "Jakarta",
      "lat": -6.2088,
      "lon": 106.8456,
      "predicted_p10": 25.72,
      "predicted_p50": 36.75,
      "predicted_p90": 47.77,
      "uncertainty": 22.05,
      "model_version": "v1.0",
      "method": "fallback_linear"
    }
  ]
}